{
    "data": [
        {
            "vaccinated": 29575,
            "name": "Guernsey",
            "country": "GG",
            "lastUpdated": "2021-04-10T13:38:07.955Z",
            "recovered": 807,
            "alwaysShow": false,
            "pop": 63196,
            "latitude": 49.4482,
            "infected": 821,
            "longitude": -2.5895,
            "dead": 14,
            "id": "0FOJefeLxQYXQ1CnJm9o",
            "sick": 0,
            "invisible": false
        },
        {
            "dead": 5734,
            "lastUpdated": "2021-04-10T14:23:05.604Z",
            "recovered": 256145,
            "country": "IT",
            "name": "Campania",
            "vaccinated": 0,
            "longitude": 14.333333,
            "latitude": 41.066666,
            "pop": 5827000,
            "id": "0GJcws44NSPsDHAuxJhW",
            "infected": 353117,
            "state": "72",
            "sick": 91238,
            "invisible": false
        },
        {
            "id": "0HDQbiHe462xMCUV5HiI",
            "infected": 30445,
            "lastUpdated": "2021-04-10T14:23:04.827Z",
            "country": "CL",
            "dead": 551,
            "name": "Tarapacá",
            "latitude": -20.2167,
            "recovered": 0,
            "vaccinated": 0,
            "longitude": -70.14222,
            "pop": 383870,
            "sick": 29894,
            "invisible": false
        },
        {
            "dead": 1979,
            "longitude": 85.0985,
            "recovered": 339200,
            "id": "0VG7S6aaK4eSo59fL9JO",
            "lastUpdated": "2021-04-10T14:23:04.391Z",
            "latitude": 20.9517,
            "pop": 45990000,
            "vaccinated": 0,
            "name": "Odisha",
            "infected": 348182,
            "country": "IN",
            "sick": 7003,
            "invisible": false
        },
        {
            "dead": 5276,
            "recovered": 0,
            "lastUpdated": "2021-04-10T14:23:05.234Z",
            "latitude": 20.4737,
            "vaccinated": 0,
            "infected": 37164,
            "id": "0XmCRqiK2ZaehoEJvfer",
            "longitude": -98.8582,
            "pop": 2990300,
            "country": "MX",
            "name": "Hidalgo",
            "sick": 31888,
            "invisible": false
        },
        {
            "infected": 5161,
            "recovered": 5028,
            "pop": 427246,
            "country": "IN",
            "vaccinated": 0,
            "longitude": 92.6586,
            "name": "Andaman and Nicobar Islands",
            "dead": 62,
            "id": "0jStOpTUNRaQYJqgmRoK",
            "latitude": 11.7401,
            "lastUpdated": "2021-04-10T14:23:04.398Z",
            "sick": 71,
            "invisible": false
        },
        {
            "longitude": 51.145517,
            "dead": 331,
            "country": "QA",
            "recovered": 169086,
            "lastUpdated": "2021-04-10T14:23:03.458Z",
            "name": "Qatar",
            "id": "0m4aECS0Z2DGFEr8ldgI",
            "infected": 189064,
            "latitude": 25.315058,
            "vaccinated": 1012716,
            "pop": 2639000,
            "sick": 19647,
            "invisible": false
        },
        {
            "name": "West Bengal",
            "vaccinated": 0,
            "id": "0n54EMSDJcRoT1QEvw80",
            "infected": 606455,
            "country": "IN",
            "recovered": 577474,
            "latitude": 22.9868,
            "lastUpdated": "2021-04-10T14:23:04.391Z",
            "pop": 90320000,
            "dead": 10378,
            "longitude": 87.855,
            "sick": 18603,
            "invisible": false
        },
        {
            "infected": 327220,
            "latitude": 22.9734,
            "dead": 4136,
            "id": "0s18o5DrDAHjbu5MFcrj",
            "lastUpdated": "2021-04-10T14:23:04.392Z",
            "country": "IN",
            "name": "Madhya Pradesh",
            "pop": 73340000,
            "longitude": 78.6569,
            "recovered": 292598,
            "vaccinated": 0,
            "sick": 30486,
            "invisible": false
        },
        {
            "recovered": 24351935,
            "dead": 0,
            "id": "0tFoopNTs6e4tOoaltu2",
            "infected": 0,
            "latitude": 37.0902,
            "longitude": -95.7129,
            "lastUpdated": "2021-04-10T14:23:03.452Z",
            "vaccinated": 0,
            "name": "Unknown US state",
            "country": "US",
            "invisible": true,
            "sick": 0
        },
        {
            "id": "0x2HLhr5z5xAtEdO4iZm",
            "vaccinated": 0,
            "country": "CN",
            "pop": 37330000,
            "latitude": 35.64249,
            "dead": 3,
            "recovered": 561,
            "lastUpdated": "2021-04-10T14:23:07.583Z",
            "longitude": 108.472214,
            "infected": 576,
            "name": "Shaanxi",
            "sick": 12,
            "invisible": false
        },
        {
            "infected": 140065,
            "id": "19MvIhipqTyYv1H37Upw",
            "name": "North Macedonia",
            "country": "MK",
            "recovered": 113430,
            "lastUpdated": "2021-04-10T14:23:03.459Z",
            "vaccinated": 18261,
            "latitude": 41.643351,
            "pop": 2077000,
            "longitude": 21.668393,
            "dead": 4150,
            "sick": 22485,
            "invisible": false
        },
        {
            "pop": 521542,
            "dead": 6,
            "longitude": -57.6604,
            "country": "CA",
            "recovered": 1019,
            "lastUpdated": "2021-04-10T14:23:06.043Z",
            "state": "NL",
            "latitude": 53.1355,
            "infected": 1025,
            "id": "1DOMOmCWDtva46OVSZLv",
            "name": "Newfoundland and Labrador",
            "vaccinated": 0,
            "sick": 0,
            "invisible": false
        },
        {
            "latitude": 35.801933,
            "vaccinated": 0,
            "country": "CN",
            "lastUpdated": "2021-04-10T14:23:07.586Z",
            "longitude": 96.779286,
            "pop": 5627000,
            "infected": 18,
            "dead": 0,
            "id": "1Fap7rZu9SIRqf5TG9Dg",
            "recovered": 18,
            "name": "Qinghai",
            "sick": 0,
            "invisible": false
        },
        {
            "lastUpdated": "2021-04-10T14:23:03.454Z",
            "invisible": true,
            "dead": 30319,
            "recovered": 1804913,
            "latitude": 23.6345,
            "pop": 126200000,
            "country": "MX",
            "vaccinated": 8978215,
            "longitude": -102.5528,
            "infected": 0,
            "name": "Unknown Mexico state",
            "id": "1YXQMlVL3fUeDZmcVfJw",
            "sick": 0
        },
        {
            "pop": 1960000,
            "infected": 44472,
            "country": "RU",
            "name": "Omsk Oblast",
            "lastUpdated": "2021-04-10T14:23:11.604Z",
            "latitude": 55.0555,
            "id": "1at5nIap9H51v32otlQl",
            "vaccinated": 0,
            "dead": 1343,
            "longitude": 73.3167,
            "recovered": 41421,
            "sick": 1708,
            "invisible": false
        },
        {
            "vaccinated": 0,
            "infected": 323937,
            "id": "1eTSQyfp8RoDPeFrIwun",
            "lastUpdated": "2021-04-10T14:23:05.607Z",
            "state": "21",
            "recovered": 283629,
            "dead": 10625,
            "pop": 4376000,
            "country": "IT",
            "name": "Piemonte",
            "longitude": 8.206944,
            "latitude": 44.9,
            "sick": 29683,
            "invisible": false
        },
        {
            "pop": 1003000,
            "latitude": 51.993,
            "name": "Lubuskie",
            "vaccinated": 0,
            "recovered": 0,
            "country": "PL",
            "longitude": 15.461,
            "dead": 1580,
            "infected": 66222,
            "id": "1j1OurxLTpZYuWIWwQ9F",
            "lastUpdated": "2021-04-10T01:13:06.760Z",
            "sick": 64642,
            "invisible": false
        },
        {
            "infected": 240056,
            "recovered": 220881,
            "id": "1qTPB8X3tyLyIdsb5TN3",
            "name": "Moldova",
            "latitude": 47.4116,
            "country": "MD",
            "lastUpdated": "2021-04-10T14:23:03.457Z",
            "pop": 3550000,
            "dead": 5339,
            "vaccinated": 54907,
            "longitude": 28.3699,
            "sick": 13836,
            "invisible": false
        },
        {
            "id": "22PJOAThcDFKgSbyQIkD",
            "dead": 234,
            "country": "US",
            "longitude": -95.7129,
            "invisible": true,
            "vaccinated": 0,
            "recovered": 0,
            "name": "Federal Bureau of Prisons",
            "lastUpdated": "2021-04-10T14:23:05.183Z",
            "latitude": 37.0902,
            "infected": 54548,
            "sick": 54314
        },
        {
            "vaccinated": 0,
            "infected": 1,
            "longitude": 88.787865,
            "id": "25qIBtsW2nfQj3pwBKg9",
            "lastUpdated": "2021-04-10T14:23:07.586Z",
            "latitude": 30.15336,
            "name": "Tibet",
            "dead": 0,
            "pop": 3180000,
            "country": "CN",
            "recovered": 1,
            "sick": 0,
            "invisible": false
        },
        {
            "lastUpdated": "2021-04-10T14:23:03.454Z",
            "longitude": 115.66779,
            "vaccinated": 9374089,
            "infected": 1562868,
            "latitude": -1.572184,
            "pop": 264000000,
            "country": "ID",
            "name": "Indonesia",
            "recovered": 1409288,
            "id": "2KHYUb5t3lwzVVmDjwNX",
            "dead": 42443,
            "sick": 111137,
            "invisible": false
        },
        {
            "latitude": 43.807191,
            "lastUpdated": "2021-04-10T14:23:05.181Z",
            "recovered": 0,
            "vaccinated": 1406840,
            "longitude": -120.585594,
            "country": "US",
            "name": "Oregon",
            "infected": 169338,
            "state": "OR",
            "dead": 2440,
            "id": "2OrsssmGUs4XCzaZzvTv",
            "pop": 4191000,
            "sick": 166898,
            "invisible": false
        },
        {
            "name": "Vaccinations in Canada",
            "latitude": 56.1304,
            "id": "2TN3MxcQYFwBnR2VERbd",
            "vaccinated": 6488833,
            "infected": 0,
            "longitude": -106.3468,
            "country": "CA",
            "lastUpdated": "2021-04-10T00:20:42.523Z",
            "invisible": true,
            "dead": 0,
            "recovered": 0,
            "sick": 0
        },
        {
            "lastUpdated": "2021-04-10T14:23:04.827Z",
            "id": "2c5HBZ1ffkCVXnMYUWnY",
            "vaccinated": 0,
            "dead": 897,
            "longitude": -70.400002,
            "recovered": 0,
            "pop": 425000,
            "infected": 44992,
            "country": "CL",
            "name": "Antofagasta",
            "latitude": -23.65,
            "sick": 44095,
            "invisible": false
        },
        {
            "dead": 1381,
            "recovered": 0,
            "longitude": -51.070534,
            "lastUpdated": "2021-04-10T14:23:05.588Z",
            "id": "2dzhyWsBSPpENWlNew0b",
            "latitude": 0.035574,
            "vaccinated": 0,
            "infected": 100948,
            "state": "AP",
            "pop": 9029000,
            "name": "Amapá",
            "country": "BR",
            "sick": 99567,
            "invisible": false
        },
        {
            "country": "CN",
            "infected": 573,
            "latitude": 43.851921,
            "lastUpdated": "2021-04-10T14:23:07.585Z",
            "id": "2jxHvSsxdnom0nPNvOT8",
            "dead": 3,
            "vaccinated": 0,
            "longitude": 126.548103,
            "name": "Jilin",
            "recovered": 570,
            "pop": 27460000,
            "sick": 0,
            "invisible": false
        },
        {
            "name": "Gibraltar",
            "id": "2p11BjSAs3wVyymgqBOe",
            "recovered": 4180,
            "infected": 4277,
            "longitude": -5.3536,
            "lastUpdated": "2021-04-10T14:23:03.466Z",
            "latitude": 36.1408,
            "country": "GI",
            "dead": 94,
            "pop": 34571,
            "vaccinated": 32895,
            "sick": 3,
            "invisible": false
        },
        {
            "longitude": 1.6751,
            "id": "2sLNkkHpyaHx7dD3aMDO",
            "dead": 2304,
            "name": "Centre-Val de Loire",
            "recovered": 9449,
            "latitude": 47.7516,
            "vaccinated": 0,
            "infected": 157177,
            "country": "FR",
            "pop": 2567000,
            "lastUpdated": "2021-04-10T01:07:18.937Z",
            "sick": 145424,
            "invisible": false
        },
        {
            "country": "IT",
            "infected": 52157,
            "lastUpdated": "2021-04-10T14:23:05.608Z",
            "longitude": 12.643751,
            "id": "319tiZOMczx1y0DfvOib",
            "pop": 884640,
            "vaccinated": 0,
            "dead": 1290,
            "state": "55",
            "name": "Umbria",
            "latitude": 42.565044,
            "recovered": 46597,
            "sick": 4270,
            "invisible": false
        },
        {
            "infected": 89783,
            "latitude": -13.133896,
            "vaccinated": 0,
            "country": "ZM",
            "dead": 1226,
            "id": "3IlPjAbP5qVMn1nlgLTJ",
            "longitude": 27.849332,
            "name": "Zambia",
            "recovered": 85559,
            "lastUpdated": "2021-04-10T14:23:03.460Z",
            "pop": 17090000,
            "sick": 2998,
            "invisible": false
        },
        {
            "vaccinated": 33163,
            "latitude": 42.7044,
            "name": "Montenegro",
            "infected": 93803,
            "country": "ME",
            "pop": 631219,
            "id": "3LstMSN5XMYBkxbe5HN7",
            "dead": 1354,
            "longitude": 19.3958,
            "recovered": 87768,
            "lastUpdated": "2021-04-10T14:23:03.459Z",
            "sick": 4681,
            "invisible": false
        },
        {
            "longitude": 149.0124,
            "name": "Australian Capital Territory",
            "infected": 123,
            "dead": 3,
            "country": "AU",
            "lastUpdated": "2021-04-10T14:23:24.157Z",
            "latitude": -35.4735,
            "vaccinated": 0,
            "state": "ACT",
            "id": "3OZoQsKrzxZ18EKyfGE6",
            "recovered": 120,
            "pop": 418440,
            "sick": 0,
            "invisible": false
        },
        {
            "id": "3PfzjWjvOkfgxc672BHQ",
            "lastUpdated": "2021-04-10T14:23:11.606Z",
            "longitude": 38.8389,
            "country": "RU",
            "name": "Yaroslavl Oblast",
            "dead": 498,
            "vaccinated": 0,
            "recovered": 35207,
            "infected": 36967,
            "latitude": 57.8992,
            "pop": 608000,
            "sick": 1262,
            "invisible": false
        },
        {
            "id": "3PpqgIUJAtzxo1j7z56i",
            "recovered": 15051,
            "dead": 200,
            "vaccinated": 0,
            "longitude": 95.626,
            "pop": 321000,
            "name": "Tuva",
            "country": "RU",
            "latitude": 51.8873,
            "infected": 15776,
            "lastUpdated": "2021-04-10T14:23:11.614Z",
            "sick": 525,
            "invisible": false
        },
        {
            "recovered": 215828,
            "pop": 30940000,
            "country": "IN",
            "vaccinated": 0,
            "lastUpdated": "2021-04-10T14:23:04.392Z",
            "name": "Assam",
            "infected": 219553,
            "dead": 1115,
            "id": "3cCbnJCsK7mKlTO08K1o",
            "longitude": 92.9376,
            "latitude": 26.2006,
            "sick": 2610,
            "invisible": false
        },
        {
            "longitude": -82.9071,
            "lastUpdated": "2021-04-10T14:23:05.166Z",
            "recovered": 0,
            "dead": 18827,
            "pop": 11690000,
            "id": "3fC3bAyIRUquOQOEnQNe",
            "vaccinated": 3979349,
            "country": "US",
            "latitude": 40.4173,
            "state": "OH",
            "infected": 1035552,
            "name": "Ohio",
            "sick": 1016725,
            "invisible": false
        },
        {
            "pop": 3066400,
            "vaccinated": 0,
            "longitude": -107.5,
            "infected": 36912,
            "id": "3kFCzJguabtBvXaHxgiu",
            "recovered": 0,
            "latitude": 25,
            "name": "Sinaloa",
            "dead": 5063,
            "lastUpdated": "2021-04-10T14:23:05.232Z",
            "country": "MX",
            "sick": 31849,
            "invisible": false
        },
        {
            "dead": 0,
            "pop": 652858,
            "infected": 19,
            "recovered": 18,
            "lastUpdated": "2021-04-10T14:23:03.469Z",
            "id": "41LTtDPrGAeevS4q8iyj",
            "longitude": 159.1874,
            "vaccinated": 2000,
            "country": "SB",
            "name": "Solomon Islands",
            "latitude": -9.2263,
            "sick": 1,
            "invisible": false
        },
        {
            "id": "4NnFMekRK2m14IlnZZoj",
            "dead": 450,
            "vaccinated": 1366,
            "country": "MR",
            "infected": 18005,
            "lastUpdated": "2021-04-10T14:23:03.462Z",
            "pop": 4420000,
            "recovered": 17307,
            "latitude": 21.0079,
            "longitude": -10.9408,
            "name": "Mauritania",
            "sick": 248,
            "invisible": false
        },
        {
            "longitude": -127.6476,
            "infected": 109540,
            "dead": 1495,
            "recovered": 108045,
            "latitude": 53.7267,
            "state": "BC",
            "vaccinated": 0,
            "pop": 5071000,
            "country": "CA",
            "lastUpdated": "2021-04-10T14:23:06.041Z",
            "name": "British Columbia",
            "id": "4hfZRUoUgI4a3vrG0GBk",
            "sick": 0,
            "invisible": false
        },
        {
            "dead": 39038,
            "state": "RJ",
            "id": "4kq0z3kh5zt3YAUWxvtE",
            "name": "Rio de Janeiro",
            "vaccinated": 0,
            "pop": 17159960,
            "latitude": -22.908333,
            "infected": 675027,
            "recovered": 0,
            "longitude": -43.196388,
            "lastUpdated": "2021-04-10T14:23:05.585Z",
            "country": "BR",
            "sick": 635989,
            "invisible": false
        },
        {
            "longitude": -41.280857,
            "country": "BR",
            "pop": 14812617,
            "dead": 16347,
            "recovered": 0,
            "id": "4yDbkEyqsNzZJjfrciYV",
            "lastUpdated": "2021-04-10T14:23:05.585Z",
            "latitude": -11.409874,
            "name": "Bahia",
            "infected": 832749,
            "state": "BA",
            "vaccinated": 0,
            "sick": 816402,
            "invisible": false
        },
        {
            "infected": 283579,
            "vaccinated": 672503,
            "longitude": 47.93802,
            "recovered": 249013,
            "latitude": 40.3426,
            "lastUpdated": "2021-04-10T14:23:03.457Z",
            "name": "Azerbaijan",
            "pop": 9898000,
            "dead": 3879,
            "id": "4zqzRm2xHn0CDVOUQJ8p",
            "country": "AZ",
            "sick": 30687,
            "invisible": false
        },
        {
            "name": "Tamaulipas",
            "lastUpdated": "2021-04-10T14:23:05.234Z",
            "pop": 3672300,
            "recovered": 0,
            "vaccinated": 0,
            "latitude": 22.233105,
            "longitude": -97.861099,
            "infected": 55101,
            "country": "MX",
            "id": "54cfsdsRF76XVHWtZs19",
            "dead": 4341,
            "sick": 50760,
            "invisible": false
        },
        {
            "vaccinated": 0,
            "state": "VLG",
            "infected": 422886,
            "lastUpdated": "2021-04-10T14:23:13.432Z",
            "id": "57ydD48mLRD2YoyteJZj",
            "latitude": 51.0109,
            "name": "Flanders",
            "pop": 6596000,
            "recovered": 31201,
            "dead": 11992,
            "longitude": 3.7265,
            "country": "BE",
            "sick": 379693,
            "invisible": false
        },
        {
            "latitude": 25.025885,
            "dead": 189,
            "infected": 9364,
            "longitude": -78.035889,
            "id": "5MHegCUO9L3LiAU7DDey",
            "pop": 395361,
            "name": "Bahamas",
            "country": "BS",
            "recovered": 8837,
            "lastUpdated": "2021-04-10T14:23:03.465Z",
            "vaccinated": 7000,
            "sick": 338,
            "invisible": false
        },
        {
            "lastUpdated": "2021-04-10T14:23:24.158Z",
            "recovered": 5227,
            "dead": 54,
            "state": "NSW",
            "longitude": 146.921097,
            "pop": 7544000,
            "name": "New South Wales",
            "id": "5N16a2OXXRpsEFanw0TC",
            "vaccinated": 0,
            "country": "AU",
            "latitude": -31.253218,
            "infected": 5324,
            "sick": 43,
            "invisible": false
        },
        {
            "recovered": 10090,
            "country": "SS",
            "latitude": 6.8769908,
            "id": "5N4PRxsCDzzwk7R200V1",
            "lastUpdated": "2021-04-10T14:23:03.464Z",
            "vaccinated": 0,
            "infected": 10359,
            "dead": 114,
            "longitude": 31.3069782,
            "name": "South Sudan",
            "pop": 12580000,
            "sick": 155,
            "invisible": false
        },
        {
            "latitude": 39.484,
            "name": "C. Valenciana",
            "infected": 387107,
            "country": "ES",
            "longitude": -0.7533,
            "state": "VC",
            "id": "5Va9A7CXR8AXdUz4HTJj",
            "lastUpdated": "2021-04-10T00:57:42.901Z",
            "recovered": 0,
            "vaccinated": 0,
            "pop": 4975000,
            "dead": 7179,
            "sick": 379928,
            "invisible": false
        },
        {
            "lastUpdated": "2021-04-10T14:23:03.468Z",
            "recovered": 58,
            "infected": 121,
            "id": "5fg04eyDwFw3kEXnrxez",
            "latitude": -20.9043045,
            "country": "NC",
            "longitude": 165.618042,
            "name": "New Caledonia",
            "pop": 280460,
            "dead": 0,
            "vaccinated": 0,
            "sick": 63,
            "invisible": false
        },
        {
            "longitude": 84.124008,
            "country": "NP",
            "id": "5gXZIjRgAvd6xWN1LOv8",
            "lastUpdated": "2021-04-10T14:23:03.457Z",
            "dead": 3039,
            "recovered": 273886,
            "infected": 279725,
            "vaccinated": 1600000,
            "name": "Nepal",
            "pop": 29300000,
            "latitude": 28.394857,
            "sick": 2800,
            "invisible": false
        },
        {
            "latitude": 12.879721,
            "longitude": 121.774017,
            "infected": 853209,
            "id": "5pwmh7aSdGRKqRbnuyc0",
            "dead": 14744,
            "vaccinated": 872213,
            "pop": 104900000,
            "country": "PH",
            "name": "Philippines",
            "recovered": 648220,
            "lastUpdated": "2021-04-10T14:23:03.455Z",
            "sick": 190245,
            "invisible": false
        },
        {
            "infected": 37147,
            "longitude": 31.053028,
            "vaccinated": 153238,
            "name": "Zimbabwe",
            "lastUpdated": "2021-04-10T14:23:03.461Z",
            "recovered": 34831,
            "latitude": -17.824858,
            "pop": 14802190,
            "id": "5qtR9nx4BLwu1ODTniaY",
            "country": "ZW",
            "dead": 1535,
            "sick": 781,
            "invisible": false
        },
        {
            "infected": 30239,
            "id": "5vkKgxTaKq1IH0Go357L",
            "vaccinated": 649010,
            "invisible": false,
            "dead": 1260,
            "name": "Navajo Nation",
            "country": "US",
            "state": "NA",
            "latitude": 36.0672,
            "longitude": -109.188,
            "recovered": 0,
            "lastUpdated": "2021-04-10T14:23:05.183Z",
            "pop": 356890,
            "sick": 28979
        },
        {
            "vaccinated": 0,
            "name": "Ciudad de México",
            "lastUpdated": "2021-04-10T14:23:05.233Z",
            "latitude": 19.432241,
            "pop": 8781300,
            "dead": 32614,
            "longitude": -99.177254,
            "country": "MX",
            "id": "61E7TGjUwAo9xu6Y6gAH",
            "recovered": 0,
            "infected": 618837,
            "sick": 586223,
            "invisible": false
        },
        {
            "id": "63KYOuWe41mvqWQrJbr2",
            "lastUpdated": "2021-04-10T14:23:11.608Z",
            "latitude": 54.3873,
            "name": "Kaluga Oblast",
            "infected": 32932,
            "dead": 295,
            "country": "RU",
            "longitude": 35.1889,
            "pop": 1012000,
            "vaccinated": 0,
            "recovered": 30784,
            "sick": 1853,
            "invisible": false
        },
        {
            "pop": 2794000,
            "recovered": 205768,
            "vaccinated": 435743,
            "latitude": 55.621011,
            "longitude": 23.804991,
            "country": "LT",
            "lastUpdated": "2021-04-10T14:23:03.458Z",
            "id": "694ON7d0mRJDeM1gHBTR",
            "dead": 3671,
            "infected": 225308,
            "name": "Lithuania",
            "sick": 15869,
            "invisible": false
        },
        {
            "lastUpdated": "2021-04-10T00:19:23.430Z",
            "latitude": -15.965,
            "longitude": -5.7089,
            "pop": 4255,
            "dead": 0,
            "id": "6EM3QSuFrkLf7093gfCU",
            "recovered": 0,
            "infected": 0,
            "country": "SH",
            "vaccinated": 3107,
            "name": "Saint Helena",
            "sick": 0,
            "invisible": false
        },
        {
            "country": "GB",
            "infected": 534972,
            "dead": 0,
            "id": "6IQAsvrmBv0HPdeTnh4x",
            "vaccinated": 0,
            "state": "EN",
            "recovered": 0,
            "latitude": 51.1781,
            "longitude": -0.5596,
            "pop": 9175000,
            "lastUpdated": "2021-04-10T14:23:06.701Z",
            "name": "South East",
            "sick": 534972,
            "invisible": false
        },
        {
            "vaccinated": 529435,
            "lastUpdated": "2021-04-10T14:23:03.464Z",
            "longitude": 114.109497,
            "name": "Hong Kong",
            "id": "6IcHIIH0zXpY0POmBZTv",
            "recovered": 11186,
            "infected": 11569,
            "latitude": 22.396427,
            "country": "HK",
            "pop": 7392000,
            "dead": 207,
            "sick": 176,
            "invisible": false
        },
        {
            "longitude": -72.4,
            "lastUpdated": "2021-04-10T14:23:05.587Z",
            "infected": 72897,
            "state": "AC",
            "dead": 1334,
            "vaccinated": 0,
            "pop": 869265,
            "latitude": -8.65,
            "id": "6LQesrx5bHJsVUi1TXBp",
            "recovered": 0,
            "name": "Acre",
            "country": "BR",
            "sick": 71563,
            "invisible": false
        },
        {
            "lastUpdated": "2021-04-10T14:23:03.465Z",
            "latitude": 9.3077,
            "recovered": 6452,
            "name": "Benin",
            "infected": 7515,
            "vaccinated": 0,
            "country": "BJ",
            "pop": 11180000,
            "dead": 93,
            "id": "6SlpghTyB6lpMFvx3g9U",
            "longitude": 2.3158,
            "sick": 970,
            "invisible": false
        },
        {
            "vaccinated": 0,
            "recovered": 648463,
            "dead": 31595,
            "country": "IT",
            "pop": 10040000,
            "state": "25",
            "longitude": 9.5,
            "latitude": 45.6667,
            "name": "Lombardia",
            "id": "6ZHcvMIzVWIaRnc4R3Qp",
            "lastUpdated": "2021-04-10T14:23:05.606Z",
            "infected": 761637,
            "sick": 81579,
            "invisible": false
        },
        {
            "id": "6ahNiyKDSDAftCctgLH3",
            "longitude": 14.5058,
            "dead": 4112,
            "vaccinated": 308522,
            "infected": 225950,
            "pop": 2067000,
            "country": "SI",
            "name": "Slovenia",
            "lastUpdated": "2021-04-10T14:23:03.458Z",
            "recovered": 207927,
            "latitude": 46.0569,
            "sick": 13911,
            "invisible": false
        },
        {
            "name": "Atacama",
            "id": "6nyns7UGGgkU7pxrHf8i",
            "dead": 178,
            "longitude": -70.331398,
            "vaccinated": 0,
            "country": "CL",
            "lastUpdated": "2021-04-10T14:23:04.828Z",
            "latitude": -27.3667908,
            "recovered": 0,
            "pop": 300000,
            "infected": 15243,
            "sick": 15065,
            "invisible": false
        },
        {
            "infected": 20636,
            "latitude": -0.8037,
            "lastUpdated": "2021-04-10T14:23:03.462Z",
            "recovered": 17456,
            "longitude": 11.6094,
            "pop": 2025000,
            "country": "GA",
            "id": "6pBi38TUgYfFm0bry2uh",
            "name": "Gabon",
            "vaccinated": 2433,
            "dead": 127,
            "sick": 3053,
            "invisible": false
        },
        {
            "name": "San Luis Potosí",
            "recovered": 0,
            "vaccinated": 0,
            "dead": 4512,
            "longitude": -100.9792,
            "lastUpdated": "2021-04-10T14:23:05.234Z",
            "country": "MX",
            "latitude": 22.1498,
            "id": "6vjIVg1gSANFZghV7xtS",
            "infected": 60975,
            "pop": 2831900,
            "sick": 56463,
            "invisible": false
        },
        {
            "alwaysShow": true,
            "pop": 9131,
            "country": "FR",
            "id": "78Ox26bNHDA2Pk2b3Uwn",
            "infected": 907,
            "dead": 1,
            "recovered": 462,
            "longitude": -62.818544,
            "latitude": 17.901672,
            "lastUpdated": "2021-04-10T14:23:03.468Z",
            "vaccinated": 0,
            "name": "Saint-Barthélémy",
            "sick": 444,
            "invisible": false
        },
        {
            "vaccinated": 0,
            "latitude": 54.367,
            "dead": 3644,
            "infected": 175708,
            "name": "Pomorskie",
            "lastUpdated": "2021-04-10T01:15:14.798Z",
            "pop": 2305000,
            "recovered": 0,
            "id": "7JDx6UJiwGSJyL1fChaJ",
            "longitude": 18.633,
            "country": "PL",
            "sick": 172064,
            "invisible": false
        },
        {
            "latitude": 35.2923,
            "longitude": -2.9381,
            "infected": 8159,
            "lastUpdated": "2021-04-10T01:02:13.692Z",
            "vaccinated": 0,
            "pop": 84690,
            "dead": 84,
            "recovered": 0,
            "state": "ML",
            "name": "Melilla",
            "id": "7UASdZTZ1nPzzBwSTEA9",
            "country": "ES",
            "sick": 8075,
            "invisible": false
        },
        {
            "lastUpdated": "2021-04-10T14:23:03.467Z",
            "pop": 102012,
            "infected": 1182,
            "longitude": -61.7964,
            "country": "AG",
            "id": "7hVFcEV7nV0MrQr3LHrl",
            "vaccinated": 26424,
            "name": "Antigua and Barbuda",
            "recovered": 913,
            "dead": 30,
            "latitude": 17.0608,
            "sick": 239,
            "invisible": false
        },
        {
            "country": "DE",
            "recovered": 472489,
            "id": "7kCrrlOBE3jN6FtOVNUB",
            "pop": 13000000,
            "dead": 13558,
            "longitude": 11.4979,
            "name": "Bayern",
            "vaccinated": 0,
            "latitude": 48.7904,
            "lastUpdated": "2021-04-10T14:23:07.522Z",
            "infected": 527018,
            "state": "BY",
            "sick": 40971,
            "invisible": false
        },
        {
            "name": "Hungary",
            "dead": 23211,
            "id": "7rYC2iFB50c55Ihgbs4Q",
            "country": "HU",
            "latitude": 47.4979,
            "recovered": 423366,
            "infected": 713868,
            "longitude": 19.0402,
            "pop": 9773000,
            "vaccinated": 2689102,
            "lastUpdated": "2021-04-10T14:23:03.455Z",
            "sick": 267291,
            "invisible": false
        },
        {
            "dead": 919,
            "recovered": 56926,
            "latitude": 7.3697,
            "name": "Cameroon",
            "lastUpdated": "2021-04-10T14:23:03.460Z",
            "pop": 24050000,
            "country": "CM",
            "id": "8C0d7WVCjyUGtnc2gUAR",
            "longitude": 12.3547,
            "vaccinated": 0,
            "infected": 61731,
            "sick": 3886,
            "invisible": false
        },
        {
            "infected": 113993,
            "dead": 2964,
            "name": "Brussels",
            "country": "BE",
            "latitude": 50.8503,
            "pop": 1209000,
            "id": "8DOZWbN6bDdgaLXVlUEu",
            "recovered": 10128,
            "state": "BRU",
            "vaccinated": 0,
            "longitude": 4.3517,
            "lastUpdated": "2021-04-10T14:23:13.438Z",
            "sick": 100901,
            "invisible": false
        },
        {
            "id": "8RihJrXw4NQXPxaRxr1u",
            "pop": 11050000,
            "name": "Bolivia",
            "country": "BO",
            "longitude": -63.5887,
            "infected": 280649,
            "vaccinated": 245763,
            "latitude": -16.2902,
            "lastUpdated": "2021-04-10T14:23:03.457Z",
            "dead": 12428,
            "recovered": 230021,
            "sick": 38200,
            "invisible": false
        },
        {
            "id": "8ZTySQROQejkDAad0qxQ",
            "recovered": 1651,
            "infected": 1790,
            "lastUpdated": "2021-04-10T14:23:03.467Z",
            "country": "VC",
            "vaccinated": 10519,
            "pop": 109897,
            "longitude": -61.2872,
            "name": "St. Vincent Grenadines",
            "latitude": 12.9843,
            "dead": 10,
            "sick": 129,
            "invisible": false
        },
        {
            "longitude": 103.819839,
            "recovered": 60304,
            "id": "8pA3fM4xC2c2wv1b4TnE",
            "pop": 5621000,
            "infected": 60633,
            "country": "SG",
            "vaccinated": 1131658,
            "dead": 30,
            "name": "Singapore",
            "lastUpdated": "2021-04-10T14:23:03.460Z",
            "latitude": 1.352083,
            "sick": 299,
            "invisible": false
        },
        {
            "infected": 166235,
            "longitude": -1.5536,
            "name": "Pays de la Loire",
            "latitude": 47.2184,
            "id": "98hwAoohgWEOQVa3NlM5",
            "dead": 2336,
            "lastUpdated": "2021-04-10T01:09:27.174Z",
            "recovered": 10355,
            "vaccinated": 0,
            "pop": 3787000,
            "country": "FR",
            "sick": 153544,
            "invisible": false
        },
        {
            "infected": 9084,
            "latitude": 19.30754,
            "lastUpdated": "2021-04-10T14:23:05.234Z",
            "pop": 952300,
            "country": "MX",
            "id": "9DAvxOObTqIvMOU93nlY",
            "name": "Campeche",
            "dead": 1043,
            "vaccinated": 0,
            "longitude": -90.19885,
            "recovered": 0,
            "sick": 8041,
            "invisible": false
        },
        {
            "id": "9DPOkpIqrFy9mR4e9fuv",
            "recovered": 24214,
            "vaccinated": 63837,
            "longitude": 30.2176,
            "lastUpdated": "2021-04-10T14:23:03.461Z",
            "infected": 30111,
            "dead": 2063,
            "latitude": 12.8628,
            "country": "SD",
            "name": "Sudan",
            "pop": 40530000,
            "sick": 3834,
            "invisible": false
        },
        {
            "id": "9JFYfvpcejMIgYlHpngA",
            "longitude": 43.9541,
            "lastUpdated": "2021-04-10T14:23:11.610Z",
            "dead": 410,
            "pop": 643000,
            "country": "RU",
            "recovered": 17277,
            "infected": 20054,
            "latitude": 58.5501,
            "name": "Kostroma Oblast",
            "vaccinated": 0,
            "sick": 2367,
            "invisible": false
        },
        {
            "pop": 19530000,
            "latitude": 45.943161,
            "lastUpdated": "2021-04-10T14:23:03.455Z",
            "id": "9QcETqEcM2fTv9zRvx5T",
            "longitude": 24.966761,
            "name": "Romania",
            "vaccinated": 2180817,
            "country": "RO",
            "dead": 25006,
            "recovered": 902239,
            "infected": 1002865,
            "sick": 75620,
            "invisible": false
        },
        {
            "dead": 179,
            "lastUpdated": "2021-04-10T14:23:03.465Z",
            "infected": 6727,
            "latitude": 12.136389,
            "id": "9Y5wmCqNCC6ZrenM31uA",
            "recovered": 4225,
            "country": "NI",
            "vaccinated": 0,
            "longitude": -86.251389,
            "pop": 6218000,
            "name": "Nicaragua",
            "sick": 2323,
            "invisible": false
        },
        {
            "longitude": -3.996166,
            "name": "Mali",
            "vaccinated": 643,
            "pop": 18540000,
            "country": "ML",
            "lastUpdated": "2021-04-10T14:23:03.464Z",
            "recovered": 7081,
            "id": "9dIzxqDSVqPyINkHqwGv",
            "latitude": 17.5706921,
            "infected": 11393,
            "dead": 404,
            "sick": 3908,
            "invisible": false
        },
        {
            "pop": 5513000,
            "id": "9p6OCdZbUUwBLA60Gk3W",
            "lastUpdated": "2021-04-10T14:23:03.460Z",
            "infected": 81707,
            "country": "FI",
            "recovered": 46000,
            "name": "Finland",
            "latitude": 61.92411,
            "vaccinated": 1028848,
            "dead": 868,
            "longitude": 25.748152,
            "sick": 34839,
            "invisible": false
        },
        {
            "id": "9zREERBEgwAenYRBslpC",
            "lastUpdated": "2021-04-10T14:23:03.469Z",
            "latitude": 11.604,
            "dead": 0,
            "longitude": 165.3133,
            "name": "Marshall Islands",
            "vaccinated": 13205,
            "pop": 58413,
            "country": "MH",
            "recovered": 4,
            "infected": 4,
            "sick": 0,
            "invisible": false
        },
        {
            "recovered": 62868,
            "longitude": 95.1104,
            "name": "Krasnoyarsk Krai",
            "id": "A6Us0fpQVCc85SoIqzg3",
            "dead": 3269,
            "vaccinated": 0,
            "lastUpdated": "2021-04-10T14:23:11.602Z",
            "latitude": 64.248,
            "country": "RU",
            "pop": 2876000,
            "infected": 67998,
            "sick": 1861,
            "invisible": false
        },
        {
            "pop": 1356000,
            "lastUpdated": "2021-04-10T14:23:05.182Z",
            "country": "US",
            "vaccinated": 637905,
            "id": "A84CwQ52kA46Hr7pn6Bm",
            "dead": 1253,
            "latitude": 43.311643,
            "infected": 87978,
            "longitude": -71.590315,
            "state": "NH",
            "name": "New Hampshire",
            "recovered": 0,
            "sick": 86725,
            "invisible": false
        },
        {
            "name": "Rhode Island",
            "longitude": -71.412257,
            "country": "US",
            "dead": 2638,
            "latitude": 41.823261,
            "infected": 141097,
            "id": "AEUWUHS65qvjEslew11c",
            "vaccinated": 403738,
            "pop": 1057000,
            "recovered": 0,
            "state": "RI",
            "lastUpdated": "2021-04-10T14:23:05.181Z",
            "sick": 138459,
            "invisible": false
        },
        {
            "pop": 4453000,
            "id": "AJ9jQ0iyKsafsmf5yHAR",
            "dead": 12307,
            "name": "Emilia-Romagna",
            "country": "IT",
            "latitude": 44.498955,
            "longitude": 11.327591,
            "infected": 348305,
            "vaccinated": 0,
            "recovered": 267780,
            "state": "45",
            "lastUpdated": "2021-04-10T14:23:05.606Z",
            "sick": 68218,
            "invisible": false
        },
        {
            "latitude": 49.3964,
            "longitude": 7.023,
            "lastUpdated": "2021-04-10T14:23:07.525Z",
            "pop": 990509,
            "state": "SL",
            "infected": 33346,
            "recovered": 30590,
            "country": "DE",
            "name": "Saarland",
            "id": "AKjFRQGnzuuZQhv5Qwx7",
            "vaccinated": 0,
            "dead": 948,
            "sick": 1808,
            "invisible": false
        },
        {
            "country": "RU",
            "name": "Chelyabinsk Oblast",
            "longitude": 60.8789,
            "id": "AOapJ3gElQApd8Gnt8EL",
            "recovered": 52132,
            "infected": 56633,
            "latitude": 54.4319,
            "pop": 3493000,
            "dead": 1299,
            "vaccinated": 0,
            "lastUpdated": "2021-04-10T14:23:11.603Z",
            "sick": 3202,
            "invisible": false
        },
        {
            "lastUpdated": "2021-04-10T14:23:04.828Z",
            "vaccinated": 0,
            "recovered": 0,
            "latitude": -35.717,
            "dead": 1044,
            "id": "APTPgjAsjFi0nsGyJV7M",
            "name": "Maule",
            "longitude": -71.167,
            "pop": 1125002,
            "infected": 58843,
            "country": "CL",
            "sick": 57799,
            "invisible": false
        },
        {
            "vaccinated": 3927,
            "name": "Greenland",
            "infected": 31,
            "country": "GL",
            "latitude": 71.7069,
            "recovered": 31,
            "lastUpdated": "2021-04-10T14:23:03.469Z",
            "pop": 56171,
            "longitude": -42.6043,
            "id": "APaZzlGCEeuoLBtzTJMe",
            "dead": 0,
            "sick": 0,
            "invisible": false
        },
        {
            "longitude": 112.4061,
            "country": "RU",
            "vaccinated": 0,
            "recovered": 34977,
            "lastUpdated": "2021-04-10T14:23:11.606Z",
            "infected": 36465,
            "pop": 984000,
            "latitude": 54.8331,
            "id": "ATxF6ZoDJ2ibdE6ZRYIX",
            "name": "Buryatia",
            "dead": 803,
            "sick": 685,
            "invisible": false
        },
        {
            "dead": 66,
            "infected": 1756,
            "state": "NS",
            "lastUpdated": "2021-04-10T14:23:06.043Z",
            "pop": 971395,
            "name": "Nova Scotia",
            "recovered": 1690,
            "id": "AVCpxeh0fuH2WrHWNDYH",
            "vaccinated": 0,
            "country": "CA",
            "longitude": -63.582687,
            "latitude": 45.65107,
            "sick": 0,
            "invisible": false
        },
        {
            "id": "AcULcZBozObOhwuRKMjJ",
            "country": "US",
            "infected": 105974,
            "recovered": 0,
            "vaccinated": 375820,
            "name": "Montana",
            "dead": 1521,
            "latitude": 47.012918,
            "state": "MT",
            "longitude": -109.128641,
            "pop": 1062000,
            "lastUpdated": "2021-04-10T14:23:05.181Z",
            "sick": 104453,
            "invisible": false
        },
        {
            "recovered": 13218,
            "infected": 13308,
            "longitude": 71.2761,
            "pop": 9275000,
            "id": "AiIGs3ybYZZhm1ytVopr",
            "dead": 90,
            "vaccinated": 0,
            "lastUpdated": "2021-04-10T14:23:03.463Z",
            "latitude": 38.861,
            "name": "Tajikistan",
            "country": "TJ",
            "sick": 0,
            "invisible": false
        },
        {
            "id": "AmBYm5J6E9Cuez1FQjiN",
            "pop": 45200000,
            "longitude": 116.01609,
            "vaccinated": 0,
            "name": "Jiangxi",
            "recovered": 936,
            "infected": 937,
            "dead": 1,
            "lastUpdated": "2021-04-10T14:23:07.585Z",
            "latitude": 27.285971,
            "country": "CN",
            "sick": 0,
            "invisible": false
        },
        {
            "dead": 5528,
            "longitude": -3.7837,
            "country": "GB",
            "name": "Wales",
            "id": "AoLhHdTydeWTfmp9koEX",
            "lastUpdated": "2021-04-10T14:23:06.700Z",
            "state": "WA",
            "latitude": 52.1307,
            "infected": 210219,
            "vaccinated": 0,
            "pop": 3136000,
            "recovered": 0,
            "sick": 204691,
            "invisible": false
        },
        {
            "lastUpdated": "2021-04-10T14:23:11.610Z",
            "id": "Avls64fLKoEsBFH0Ol0b",
            "longitude": 90.3982,
            "country": "RU",
            "vaccinated": 0,
            "pop": 537000,
            "latitude": 53.0452,
            "name": "Khakassia",
            "infected": 21986,
            "dead": 512,
            "recovered": 21268,
            "sick": 206,
            "invisible": false
        },
        {
            "id": "AwN0CScPDApcLFgz6e3z",
            "lastUpdated": "2021-04-10T14:23:03.459Z",
            "infected": 118251,
            "longitude": 1.659626,
            "name": "Algeria",
            "recovered": 82392,
            "latitude": 28.033886,
            "vaccinated": 75000,
            "pop": 41320000,
            "country": "DZ",
            "dead": 3123,
            "sick": 32736,
            "invisible": false
        },
        {
            "recovered": 270964,
            "infected": 290899,
            "country": "HR",
            "longitude": 15.2,
            "id": "B82Ef45M8cDu4q7VsSHF",
            "vaccinated": 432601,
            "name": "Croatia",
            "pop": 4076000,
            "latitude": 45.099998,
            "lastUpdated": "2021-04-10T14:23:03.457Z",
            "dead": 6269,
            "sick": 13666,
            "invisible": false
        },
        {
            "infected": 5062,
            "longitude": 8.081666,
            "id": "BENubqQInFUJzhpZTsLT",
            "country": "NE",
            "pop": 23716000,
            "vaccinated": 0,
            "latitude": 17.6077881,
            "dead": 188,
            "name": "Niger",
            "recovered": 4746,
            "lastUpdated": "2021-04-10T14:23:03.466Z",
            "sick": 128,
            "invisible": false
        },
        {
            "vaccinated": 2230189,
            "infected": 425247,
            "lastUpdated": "2021-04-10T14:23:05.179Z",
            "pop": 6043000,
            "latitude": 39.509109,
            "recovered": 0,
            "state": "MD",
            "id": "BF51mWl51fgEcyBpCSzb",
            "name": "Maryland",
            "dead": 8444,
            "longitude": -76.98432,
            "country": "US",
            "sick": 416803,
            "invisible": false
        },
        {
            "latitude": 53.709808,
            "name": "Belarus",
            "infected": 334863,
            "country": "BY",
            "vaccinated": 40518,
            "lastUpdated": "2021-04-10T14:23:03.457Z",
            "pop": 9508000,
            "dead": 2344,
            "longitude": 27.953388,
            "id": "BGg6yVU5VP71B8NXU0oh",
            "recovered": 325108,
            "sick": 7411,
            "invisible": false
        },
        {
            "vaccinated": 0,
            "latitude": 48.8799,
            "dead": 2731,
            "id": "BGtoyzb7y54LVlJ91rbf",
            "pop": 3319000,
            "country": "FR",
            "infected": 183066,
            "lastUpdated": "2021-04-10T01:08:40.425Z",
            "longitude": 0.1713,
            "name": "Normandie",
            "recovered": 10666,
            "sick": 169669,
            "invisible": false
        },
        {
            "lastUpdated": "2021-04-10T14:23:06.702Z",
            "state": "EN",
            "longitude": -3.9995,
            "vaccinated": 0,
            "recovered": 0,
            "country": "GB",
            "name": "South West",
            "dead": 0,
            "id": "BQqMOlPFD36ZEDTGd3WC",
            "latitude": 50.7772,
            "infected": 218676,
            "pop": 5616000,
            "sick": 218676,
            "invisible": false
        },
        {
            "id": "BTEESCuD2ZbS1afunR2A",
            "longitude": -111.093735,
            "name": "Arizona",
            "pop": 7172000,
            "infected": 848202,
            "country": "US",
            "vaccinated": 2452911,
            "recovered": 0,
            "dead": 17062,
            "state": "AZ",
            "latitude": 34.048927,
            "lastUpdated": "2021-04-10T14:23:05.166Z",
            "sick": 831140,
            "invisible": false
        },
        {
            "pop": 949000,
            "id": "BUb7oDHcBM4lQ5cufNoG",
            "dead": 801,
            "country": "RU",
            "name": "Smolensk Oblast",
            "infected": 28494,
            "longitude": 32.6677,
            "lastUpdated": "2021-04-10T14:23:11.609Z",
            "vaccinated": 0,
            "recovered": 27160,
            "latitude": 54.9883,
            "sick": 533,
            "invisible": false
        },
        {
            "lastUpdated": "2021-04-10T14:23:11.605Z",
            "country": "RU",
            "id": "BWojXmuKU3szKlS7CE4k",
            "longitude": 50.2097,
            "dead": 331,
            "name": "Kirov Oblast",
            "latitude": 58.4199,
            "vaccinated": 0,
            "recovered": 37193,
            "infected": 40594,
            "pop": 1283000,
            "sick": 3070,
            "invisible": false
        },
        {
            "recovered": 0,
            "pop": 1676000,
            "lastUpdated": "2021-04-10T01:17:35.160Z",
            "dead": 2287,
            "country": "PL",
            "name": "Zachodniopomorskie",
            "id": "BZwZOAlDJ8AIiaRVLyC9",
            "infected": 117226,
            "latitude": 53.428543,
            "longitude": 14.552812,
            "vaccinated": 0,
            "sick": 114939,
            "invisible": false
        },
        {
            "id": "BbiuZcm8oURX7cZwaa5U",
            "dead": 1,
            "name": "Unknown Chile region",
            "recovered": 991676,
            "country": "CL",
            "invisible": true,
            "longitude": -70.6693,
            "lastUpdated": "2021-04-10T14:23:04.829Z",
            "infected": 46,
            "vaccinated": 7144047,
            "latitude": -33.4489,
            "sick": 0
        },
        {
            "lastUpdated": "2021-04-10T14:23:03.461Z",
            "country": "MW",
            "vaccinated": 164733,
            "id": "BfT8o5DaEixC6JIZ28kY",
            "recovered": 31239,
            "longitude": 34.3015,
            "latitude": -13.2543,
            "infected": 33779,
            "pop": 18620000,
            "dead": 1126,
            "name": "Malawi",
            "sick": 1414,
            "invisible": false
        },
        {
            "pop": 10860000,
            "country": "BI",
            "longitude": 29.9188862,
            "lastUpdated": "2021-04-10T14:23:03.466Z",
            "name": "Burundi",
            "vaccinated": 0,
            "id": "BnpMamidC5yYzeK8tPUL",
            "recovered": 773,
            "latitude": -3.3730559,
            "infected": 3078,
            "dead": 6,
            "sick": 2299,
            "invisible": false
        },
        {
            "lastUpdated": "2021-04-10T01:14:02.533Z",
            "pop": 5385000,
            "country": "PL",
            "longitude": 21.002,
            "dead": 7117,
            "recovered": 0,
            "infected": 345259,
            "name": "Mazowieckie",
            "vaccinated": 0,
            "latitude": 52.257,
            "id": "BrToMzyq8y2xdwXn75kM",
            "sick": 338142,
            "invisible": false
        },
        {
            "longitude": -73.982597,
            "latitude": 40.719042,
            "vaccinated": 7199856,
            "lastUpdated": "2021-04-10T14:23:05.165Z",
            "name": "New York",
            "state": "NY",
            "pop": 19540000,
            "dead": 51250,
            "country": "US",
            "id": "C3BCUzV80z9GfiuByIcr",
            "infected": 1986098,
            "recovered": 0,
            "sick": 1934848,
            "invisible": false
        },
        {
            "latitude": 49.731626,
            "infected": 1577972,
            "longitude": 15.359413,
            "id": "C6S76AggdWVU8G22jFHQ",
            "dead": 27734,
            "pop": 10650000,
            "recovered": 1448843,
            "lastUpdated": "2021-04-10T14:23:03.454Z",
            "vaccinated": 1308073,
            "country": "CZ",
            "name": "Czechia",
            "sick": 101395,
            "invisible": false
        },
        {
            "recovered": 142741,
            "infected": 154280,
            "vaccinated": 552084,
            "pop": 1493000,
            "latitude": 26.0667,
            "country": "BH",
            "dead": 550,
            "id": "C7cj4nwRITs13KnaJrQ2",
            "longitude": 50.557701,
            "lastUpdated": "2021-04-10T14:23:03.459Z",
            "name": "Bahrain",
            "sick": 10989,
            "invisible": false
        },
        {
            "longitude": -101.430756,
            "latitude": 26.909979,
            "name": "Coahuila",
            "recovered": 0,
            "infected": 66971,
            "country": "MX",
            "lastUpdated": "2021-04-10T14:23:05.233Z",
            "id": "CCUFp4urvgXPo5unfMGy",
            "dead": 5573,
            "vaccinated": 0,
            "pop": 3073500,
            "sick": 61398,
            "invisible": false
        },
        {
            "country": "IN",
            "longitude": 74.2179,
            "id": "CKZCZTPlrcq5fbfUPA9k",
            "latitude": 27.0238,
            "recovered": 327866,
            "lastUpdated": "2021-04-10T14:23:04.391Z",
            "infected": 358688,
            "vaccinated": 0,
            "name": "Rajasthan",
            "pop": 68890000,
            "dead": 2916,
            "sick": 27906,
            "invisible": false
        },
        {
            "recovered": 16398,
            "country": "RU",
            "id": "CX8z9U1iABNBhc1VK2Dy",
            "name": "Altai",
            "vaccinated": 0,
            "dead": 204,
            "longitude": 86.2199,
            "infected": 16734,
            "pop": 218000,
            "latitude": 50.6182,
            "lastUpdated": "2021-04-10T14:23:11.613Z",
            "sick": 132,
            "invisible": false
        },
        {
            "latitude": 13.803,
            "name": "El Salvador",
            "dead": 2048,
            "recovered": 62340,
            "id": "Cgvmtle61ehMvCzRzYx7",
            "pop": 6378000,
            "lastUpdated": "2021-04-10T14:23:03.460Z",
            "infected": 65491,
            "vaccinated": 160000,
            "country": "SV",
            "longitude": -88.9053,
            "sick": 1103,
            "invisible": false
        },
        {
            "dead": 99,
            "vaccinated": 0,
            "name": "Magadan Oblast",
            "infected": 8274,
            "country": "RU",
            "recovered": 8080,
            "id": "D4WkbqyUXY1pazbOxfKx",
            "longitude": 153.915,
            "lastUpdated": "2021-04-10T14:23:11.615Z",
            "latitude": 62.6643,
            "pop": 144000,
            "sick": 95,
            "invisible": false
        },
        {
            "lastUpdated": "2021-04-10T14:23:11.608Z",
            "name": "Tomsk Oblast",
            "pop": 1078000,
            "dead": 372,
            "country": "RU",
            "vaccinated": 0,
            "id": "DAp3PFow4BuCMYWWTo3i",
            "longitude": 82.6765,
            "recovered": 30616,
            "infected": 31636,
            "latitude": 58.897,
            "sick": 648,
            "invisible": false
        },
        {
            "recovered": 181180,
            "name": "Armenia",
            "longitude": 44.818474,
            "infected": 202167,
            "dead": 3720,
            "pop": 2973000,
            "country": "AM",
            "vaccinated": 565,
            "id": "DCJCtZoBTWQ4mzdDNljD",
            "lastUpdated": "2021-04-10T14:23:03.458Z",
            "latitude": 40.259003,
            "sick": 17267,
            "invisible": false
        },
        {
            "name": "Mordovia",
            "recovered": 17415,
            "country": "RU",
            "lastUpdated": "2021-04-10T14:23:11.613Z",
            "latitude": 54.2369,
            "pop": 834000,
            "vaccinated": 0,
            "id": "DKwy7USk22oXUQGEvO42",
            "infected": 19417,
            "longitude": 44.0684,
            "dead": 218,
            "sick": 1784,
            "invisible": false
        },
        {
            "pop": 7300000,
            "id": "DPwBt2aJuwF0O71vwfM9",
            "vaccinated": 0,
            "dead": 0,
            "infected": 601034,
            "name": "North West",
            "state": "EN",
            "latitude": 53.6221,
            "recovered": 0,
            "lastUpdated": "2021-04-10T14:23:06.701Z",
            "country": "GB",
            "longitude": -2.5945,
            "sick": 601034,
            "invisible": false
        },
        {
            "country": "BM",
            "name": "Bermuda",
            "recovered": 888,
            "lastUpdated": "2021-04-10T14:23:03.467Z",
            "latitude": 32.3213844,
            "infected": 1773,
            "pop": 65440,
            "dead": 14,
            "id": "DZyTD0Mu5WIcK6yTcJ91",
            "longitude": -64.75737,
            "vaccinated": 23791,
            "sick": 871,
            "invisible": false
        },
        {
            "vaccinated": 12935,
            "longitude": -71.7979,
            "id": "DaMrRSIGJXIG36nW0Pnc",
            "dead": 17,
            "latitude": 21.694,
            "recovered": 2279,
            "lastUpdated": "2021-04-10T14:23:03.467Z",
            "infected": 2344,
            "pop": 35446,
            "country": "TC",
            "name": "Turks and Caicos",
            "sick": 48,
            "invisible": false
        },
        {
            "infected": 178092,
            "latitude": 39.2796,
            "pop": 2035000,
            "recovered": 0,
            "vaccinated": 0,
            "lastUpdated": "2021-04-10T00:58:58.283Z",
            "longitude": -3.0977,
            "state": "CM",
            "name": "Castilla La Mancha",
            "dead": 5778,
            "id": "Dbng0NBTH41EEwBxhMzE",
            "country": "ES",
            "sick": 172314,
            "invisible": false
        },
        {
            "dead": 4363,
            "id": "DcQ3D0WkacXEbv6iznRB",
            "name": "Malopolskie",
            "vaccinated": 0,
            "infected": 195145,
            "recovered": 0,
            "lastUpdated": "2021-04-10T01:13:45.402Z",
            "longitude": 20.006,
            "pop": 3361000,
            "country": "PL",
            "latitude": 50.023,
            "sick": 190782,
            "invisible": false
        },
        {
            "recovered": 48,
            "lastUpdated": "2021-04-10T14:23:03.469Z",
            "infected": 49,
            "pop": 622567,
            "dead": 0,
            "vaccinated": 41914,
            "longitude": 113.551262,
            "country": "MO",
            "name": "Macao",
            "latitude": 22.192039,
            "id": "DdBt8qsG6A3g92oOR3ow",
            "sick": 1,
            "invisible": false
        },
        {
            "vaccinated": 0,
            "id": "Dh0O1vmhrVfmsCsfZCUg",
            "latitude": 25.467,
            "dead": 151,
            "name": "Meghalaya",
            "recovered": 13893,
            "country": "IN",
            "pop": 2651000,
            "lastUpdated": "2021-04-10T14:23:04.397Z",
            "infected": 14246,
            "longitude": 91.3662,
            "sick": 202,
            "invisible": false
        },
        {
            "lastUpdated": "2021-04-10T14:23:11.601Z",
            "infected": 83243,
            "dead": 3796,
            "recovered": 74685,
            "country": "RU",
            "id": "DqzAhNFTJFQVm88ma21P",
            "pop": 4220000,
            "latitude": 47.6853,
            "longitude": 41.8259,
            "name": "Rostov Oblast",
            "vaccinated": 0,
            "sick": 4762,
            "invisible": false
        },
        {
            "id": "DrGzziUglmBognCGY7R2",
            "recovered": 0,
            "longitude": -107.534868,
            "pop": 577737,
            "country": "US",
            "state": "WY",
            "latitude": 42.962334,
            "dead": 701,
            "vaccinated": 169409,
            "name": "Wyoming",
            "infected": 56873,
            "lastUpdated": "2021-04-10T14:23:05.182Z",
            "sick": 56172,
            "invisible": false
        },
        {
            "infected": 0,
            "id": "DsTHxwSGDvMd4Hnsc21k",
            "invisible": true,
            "lastUpdated": "2021-04-10T00:19:49.704Z",
            "recovered": 0,
            "longitude": 78.9629,
            "country": "IN",
            "vaccinated": 82456522,
            "name": "Vaccinations in India",
            "latitude": 20.5937,
            "dead": 0,
            "sick": 0
        },
        {
            "lastUpdated": "2021-04-10T14:23:03.457Z",
            "latitude": 37.9838,
            "country": "GR",
            "name": "Greece",
            "id": "Dtr1lap1RpJpXJdXGJiW",
            "recovered": 245351,
            "pop": 10740000,
            "infected": 290964,
            "longitude": 23.7275,
            "dead": 8758,
            "vaccinated": 1353956,
            "sick": 36855,
            "invisible": false
        },
        {
            "lastUpdated": "2021-04-10T14:23:11.603Z",
            "country": "RU",
            "id": "E8vIyXLVNtcY9dxLHICp",
            "vaccinated": 0,
            "name": "Perm Krai",
            "pop": 2623000,
            "dead": 2021,
            "recovered": 47202,
            "infected": 52371,
            "longitude": 56.5872,
            "latitude": 58.8232,
            "sick": 3148,
            "invisible": false
        },
        {
            "country": "RU",
            "dead": 425,
            "id": "EHKZ6ivhrJUs3XqNDBOw",
            "name": "Tyumen Oblast",
            "recovered": 32258,
            "pop": 3692000,
            "lastUpdated": "2021-04-10T14:23:11.606Z",
            "infected": 34126,
            "longitude": 66.9483,
            "vaccinated": 0,
            "latitude": 56.9634,
            "sick": 1443,
            "invisible": false
        },
        {
            "country": "TW",
            "name": "Taiwan",
            "recovered": 1020,
            "pop": 23780000,
            "lastUpdated": "2021-04-10T14:23:03.468Z",
            "longitude": 121.563698,
            "infected": 1056,
            "latitude": 25.03841,
            "dead": 10,
            "vaccinated": 20075,
            "id": "EKTfs8e7M6DXzI1HqyyX",
            "sick": 26,
            "invisible": false
        },
        {
            "country": "CR",
            "latitude": 10.327273,
            "id": "EQzJvzVHKjs8kLmK7BMu",
            "pop": 4906000,
            "lastUpdated": "2021-04-10T14:23:03.458Z",
            "longitude": -84.387618,
            "dead": 3018,
            "name": "Costa Rica",
            "vaccinated": 291368,
            "infected": 222544,
            "recovered": 194760,
            "sick": 24766,
            "invisible": false
        },
        {
            "longitude": 71.1924,
            "id": "ERwk9R9en4m9WbdoMbIg",
            "name": "Gujarat",
            "recovered": 309626,
            "dead": 4697,
            "vaccinated": 0,
            "country": "IN",
            "latitude": 22.2587,
            "lastUpdated": "2021-04-10T14:23:04.391Z",
            "infected": 337015,
            "pop": 62700000,
            "sick": 22692,
            "invisible": false
        },
        {
            "name": "Arkhangelsk Oblast",
            "pop": 1155000,
            "id": "EVMBsgCJedjHy91mDYEC",
            "recovered": 56249,
            "lastUpdated": "2021-04-10T14:23:11.602Z",
            "vaccinated": 0,
            "longitude": 42.5884,
            "latitude": 63.2853,
            "country": "RU",
            "dead": 844,
            "infected": 60500,
            "sick": 3407,
            "invisible": false
        },
        {
            "id": "Esl5UlCVB9s8pmGB5Ofr",
            "infected": 30341,
            "country": "IN",
            "pop": 1055000,
            "vaccinated": 0,
            "longitude": 76.7794,
            "name": "Chandigarh",
            "recovered": 26680,
            "latitude": 30.7333,
            "dead": 396,
            "lastUpdated": "2021-04-10T14:23:04.397Z",
            "sick": 3265,
            "invisible": false
        },
        {
            "id": "Esy1La2CxwH5uB8bGVWZ",
            "name": "Lubelskie",
            "pop": 2148000,
            "infected": 113426,
            "longitude": 22.653,
            "country": "PL",
            "lastUpdated": "2021-04-10T01:12:52.268Z",
            "vaccinated": 0,
            "dead": 3608,
            "latitude": 51.24,
            "recovered": 0,
            "sick": 109818,
            "invisible": false
        },
        {
            "id": "F4rPrEVGAIMM5rfPEMv4",
            "country": "US",
            "longitude": -66.664513,
            "pop": 3195000,
            "name": "Puerto Rico",
            "infected": 212690,
            "vaccinated": 807713,
            "recovered": 0,
            "lastUpdated": "2021-04-10T14:23:05.182Z",
            "alwaysShow": true,
            "dead": 2146,
            "state": "PR",
            "latitude": 18.200178,
            "sick": 210544,
            "invisible": false
        },
        {
            "recovered": 3568,
            "longitude": 43.3333,
            "country": "KM",
            "lastUpdated": "2021-04-10T14:23:03.466Z",
            "id": "F8LnLqvuWoWh8awBqiw1",
            "latitude": -11.6455,
            "dead": 146,
            "name": "Comoros",
            "pop": 832322,
            "infected": 3758,
            "vaccinated": 0,
            "sick": 44,
            "invisible": false
        },
        {
            "recovered": 51962,
            "id": "FCDmlmnIIswd8bQiUjfN",
            "longitude": 67.709953,
            "country": "AF",
            "dead": 2521,
            "latitude": 33.93911,
            "vaccinated": 120000,
            "lastUpdated": "2021-04-10T14:23:03.460Z",
            "pop": 35530000,
            "infected": 57160,
            "name": "Afghanistan",
            "sick": 2677,
            "invisible": false
        },
        {
            "id": "FErOU1m4Tj7jIkRam3vF",
            "recovered": 585,
            "dead": 6,
            "vaccinated": 0,
            "latitude": 29.431585,
            "country": "CN",
            "infected": 591,
            "name": "Chongqing",
            "lastUpdated": "2021-04-10T14:23:07.585Z",
            "longitude": 106.912254,
            "pop": 30480000,
            "sick": 0,
            "invisible": false
        },
        {
            "longitude": 47.481766,
            "lastUpdated": "2021-04-10T14:23:03.457Z",
            "dead": 1393,
            "name": "Kuwait",
            "infected": 244325,
            "vaccinated": 604861,
            "recovered": 228627,
            "pop": 4137000,
            "country": "KW",
            "latitude": 29.311661,
            "id": "FZsUkhxBEgqsPb4eO0PN",
            "sick": 14305,
            "invisible": false
        },
        {
            "infected": 182014,
            "state": "SE",
            "longitude": -37.0717,
            "pop": 2278308,
            "id": "FboWeolpM62SZCLwdilT",
            "lastUpdated": "2021-04-10T14:23:05.587Z",
            "country": "BR",
            "recovered": 0,
            "dead": 3719,
            "vaccinated": 0,
            "name": "Sergipe",
            "latitude": -10.9111,
            "sick": 178295,
            "invisible": false
        },
        {
            "country": "IN",
            "latitude": 11.1271,
            "name": "Tamil Nadu",
            "infected": 926816,
            "recovered": 876257,
            "pop": 67860000,
            "vaccinated": 0,
            "longitude": 78.6569,
            "dead": 12886,
            "lastUpdated": "2021-04-10T14:23:04.390Z",
            "id": "FeS45oMNC27pI17F0xEV",
            "sick": 37673,
            "invisible": false
        },
        {
            "country": "DO",
            "id": "FuiVEJvWb0QMCpxJ3563",
            "name": "Dominican Republic",
            "lastUpdated": "2021-04-10T14:23:03.457Z",
            "dead": 3382,
            "recovered": 215726,
            "latitude": 18.947829,
            "pop": 10770000,
            "longitude": -70.430399,
            "infected": 256563,
            "vaccinated": 1000000,
            "sick": 37455,
            "invisible": false
        },
        {
            "pop": 35190000,
            "name": "Telengana",
            "longitude": 79.0193,
            "id": "FyC551oNwmENxbr9Yght",
            "country": "IN",
            "lastUpdated": "2021-04-10T14:23:04.391Z",
            "infected": 324091,
            "latitude": 18.1124,
            "dead": 1752,
            "vaccinated": 0,
            "recovered": 304548,
            "sick": 17791,
            "invisible": false
        },
        {
            "id": "FzIDXoqWnTI3nUfhPyT2",
            "lastUpdated": "2021-04-10T14:23:03.456Z",
            "infected": 370473,
            "longitude": 19.699,
            "recovered": 255300,
            "pop": 5450000,
            "latitude": 48.669,
            "dead": 10487,
            "name": "Slovakia",
            "country": "SK",
            "vaccinated": 811508,
            "sick": 104686,
            "invisible": false
        },
        {
            "longitude": 69.345116,
            "dead": 15329,
            "infected": 715968,
            "lastUpdated": "2021-04-10T14:23:03.455Z",
            "latitude": 30.37532,
            "id": "GAp7Wb6IMhdgbvEtMza9",
            "name": "Pakistan",
            "recovered": 627561,
            "country": "PK",
            "vaccinated": 1114000,
            "pop": 197000000,
            "sick": 73078,
            "invisible": false
        },
        {
            "latitude": 31.1471,
            "lastUpdated": "2021-04-10T14:23:04.392Z",
            "longitude": 75.3412,
            "id": "GGru8cG08mANO8XDDUtZ",
            "recovered": 231885,
            "pop": 27980000,
            "name": "Punjab",
            "dead": 7390,
            "infected": 266494,
            "vaccinated": 0,
            "country": "IN",
            "sick": 27219,
            "invisible": false
        },
        {
            "name": "United Arab Emirates",
            "latitude": 23.424076,
            "dead": 1529,
            "country": "AE",
            "vaccinated": 8889571,
            "id": "GHzBIsHy2GiBc5JV2HMs",
            "longitude": 53.847816,
            "lastUpdated": "2021-04-10T14:23:03.456Z",
            "infected": 481937,
            "pop": 9400000,
            "recovered": 466804,
            "sick": 13604,
            "invisible": false
        },
        {
            "latitude": 37.0902,
            "recovered": 0,
            "lastUpdated": "2021-04-10T14:23:05.183Z",
            "id": "GLViSIjDjwvptOphedAu",
            "country": "US",
            "vaccinated": 0,
            "infected": 122,
            "invisible": true,
            "dead": 7,
            "longitude": -95.7129,
            "name": "Grand Princess",
            "sick": 115
        },
        {
            "lastUpdated": "2021-04-10T14:23:06.701Z",
            "vaccinated": 0,
            "infected": 712965,
            "pop": 10100000,
            "longitude": -0.1278,
            "country": "GB",
            "latitude": 51.5074,
            "dead": 0,
            "state": "EN",
            "name": "London",
            "recovered": 0,
            "id": "GPtoS0Yy2EnNafpmmTqY",
            "sick": 712965,
            "invisible": false
        },
        {
            "vaccinated": 14445185,
            "dead": 60282,
            "latitude": 36.621981,
            "lastUpdated": "2021-04-10T14:23:05.164Z",
            "recovered": 0,
            "id": "Gh46r6vuaY7fbGt3IboN",
            "state": "CA",
            "name": "California",
            "pop": 39560000,
            "infected": 3694147,
            "longitude": -119.339046,
            "country": "US",
            "sick": 3633865,
            "invisible": false
        },
        {
            "latitude": 20.4283,
            "pop": 343709,
            "vaccinated": 0,
            "name": "Dadra and Nagar Haveli",
            "lastUpdated": "2021-04-10T14:23:04.398Z",
            "recovered": 3596,
            "infected": 3883,
            "country": "IN",
            "longitude": 72.8397,
            "id": "GljWeVnun6o9DeW6rlEm",
            "dead": 2,
            "sick": 285,
            "invisible": false
        },
        {
            "infected": 442805,
            "vaccinated": 1368221,
            "lastUpdated": "2021-04-10T14:23:05.179Z",
            "country": "US",
            "pop": 3943000,
            "latitude": 35.87189,
            "dead": 6669,
            "state": "OK",
            "longitude": -97.145514,
            "id": "GpF8ULuKOQiFDCUHN44h",
            "recovered": 0,
            "name": "Oklahoma",
            "sick": 436136,
            "invisible": false
        },
        {
            "lastUpdated": "2021-04-10T14:23:11.608Z",
            "latitude": 57.1057,
            "recovered": 31722,
            "vaccinated": 0,
            "longitude": 41.483,
            "name": "Ivanovo Oblast",
            "pop": 1014000,
            "id": "GsecjBfopdgTOnyRgtCA",
            "country": "RU",
            "dead": 1082,
            "infected": 33191,
            "sick": 387,
            "invisible": false
        },
        {
            "id": "Gzx6GX1qhBm714BkEC6l",
            "country": "IT",
            "vaccinated": 0,
            "pop": 520891,
            "dead": 1149,
            "latitude": 46.5,
            "infected": 69864,
            "longitude": 11.35,
            "state": "BA",
            "lastUpdated": "2021-04-10T14:23:05.607Z",
            "recovered": 68164,
            "name": "P.A. Bolzano",
            "sick": 551,
            "invisible": false
        },
        {
            "longitude": 113.750972,
            "id": "H3JeVigVbo5CSYfZG4WI",
            "pop": 24710000,
            "recovered": 373,
            "name": "Inner Mongolia",
            "lastUpdated": "2021-04-10T14:23:07.584Z",
            "country": "CN",
            "infected": 377,
            "dead": 1,
            "vaccinated": 0,
            "latitude": 42.83263,
            "sick": 3,
            "invisible": false
        },
        {
            "id": "H3bDg4eV30up4WWrIDAS",
            "country": "US",
            "vaccinated": 982312,
            "dead": 5323,
            "infected": 306952,
            "latitude": 39.74536,
            "recovered": 0,
            "lastUpdated": "2021-04-10T14:23:05.180Z",
            "name": "Nevada",
            "state": "NV",
            "pop": 3034000,
            "longitude": -116.724977,
            "sick": 301629,
            "invisible": false
        },
        {
            "pop": 9075649,
            "state": "CE",
            "vaccinated": 0,
            "name": "Ceará",
            "longitude": -38.526669,
            "country": "BR",
            "infected": 580916,
            "lastUpdated": "2021-04-10T14:23:05.587Z",
            "dead": 15412,
            "id": "HEMWNnFxeFEoeOCBOLJD",
            "latitude": -3.731862,
            "recovered": 0,
            "sick": 565504,
            "invisible": false
        },
        {
            "recovered": 977169,
            "country": "IN",
            "vaccinated": 0,
            "id": "HN5mGmxlqlSeFSNeu1K5",
            "name": "Karnataka",
            "pop": 64060000,
            "longitude": 75.7139,
            "infected": 1048085,
            "dead": 12813,
            "lastUpdated": "2021-04-10T14:23:04.390Z",
            "latitude": 15.3173,
            "sick": 58103,
            "invisible": false
        },
        {
            "recovered": 875,
            "infected": 910,
            "name": "Bhutan",
            "latitude": 27.5142,
            "dead": 1,
            "vaccinated": 472139,
            "id": "HRDpwyxpqW9RN0xLFyNu",
            "longitude": 90.4336,
            "country": "BT",
            "lastUpdated": "2021-04-10T14:23:03.468Z",
            "pop": 807610,
            "sick": 34,
            "invisible": false
        },
        {
            "latitude": 41.3775,
            "dead": 634,
            "name": "Uzbekistan",
            "vaccinated": 35000,
            "longitude": 64.5853,
            "lastUpdated": "2021-04-10T14:23:03.460Z",
            "pop": 32390000,
            "id": "HRTA10dtrruDEwjJEGMp",
            "country": "UZ",
            "recovered": 82586,
            "infected": 84724,
            "sick": 1504,
            "invisible": false
        },
        {
            "state": "NM",
            "infected": 193368,
            "country": "US",
            "lastUpdated": "2021-04-10T14:23:05.181Z",
            "dead": 3976,
            "latitude": 34.138916,
            "pop": 2095000,
            "recovered": 0,
            "id": "HSSFomRju0doHhWgW8On",
            "longitude": -105.576255,
            "vaccinated": 904820,
            "name": "New Mexico",
            "sick": 189392,
            "invisible": false
        },
        {
            "name": "Los Ríos",
            "pop": 412812,
            "latitude": -40.231,
            "lastUpdated": "2021-04-10T14:23:04.829Z",
            "infected": 29722,
            "longitude": -72.3311,
            "recovered": 0,
            "vaccinated": 0,
            "dead": 332,
            "id": "HZkACHjW7NlYjg8vEMj2",
            "country": "CL",
            "sick": 29390,
            "invisible": false
        },
        {
            "country": "DE",
            "latitude": 53.6127,
            "longitude": 12.4296,
            "vaccinated": 0,
            "recovered": 29190,
            "id": "He1gSS1v50t06i3YrqvB",
            "pop": 1635000,
            "name": "Mecklenburg-Vorpommern",
            "infected": 33332,
            "dead": 903,
            "lastUpdated": "2021-04-10T14:23:07.524Z",
            "state": "MV",
            "sick": 3239,
            "invisible": false
        },
        {
            "dead": 2227,
            "id": "I9EqrZfbPnkioNU4wZGz",
            "infected": 67506,
            "country": "IT",
            "state": "65",
            "latitude": 42.25,
            "pop": 1315000,
            "recovered": 55076,
            "vaccinated": 0,
            "longitude": 13.75,
            "lastUpdated": "2021-04-10T14:23:05.596Z",
            "name": "Abruzzo",
            "sick": 10203,
            "invisible": false
        },
        {
            "lastUpdated": "2021-04-10T14:23:07.582Z",
            "latitude": 23.363855,
            "name": "Guangdong",
            "recovered": 2249,
            "longitude": 113.373448,
            "pop": 113460000,
            "infected": 2295,
            "id": "IAX0OQLVnUwU7FX0ENF1",
            "country": "CN",
            "dead": 8,
            "vaccinated": 0,
            "sick": 38,
            "invisible": false
        },
        {
            "longitude": 113.484016,
            "name": "Henan",
            "recovered": 1284,
            "vaccinated": 0,
            "lastUpdated": "2021-04-10T14:23:07.583Z",
            "infected": 1311,
            "country": "CN",
            "pop": 94000000,
            "id": "IFuMrMvSjoiX5agYvllh",
            "dead": 22,
            "latitude": 33.875408,
            "sick": 5,
            "invisible": false
        },
        {
            "dead": 354,
            "recovered": 0,
            "id": "IHqRHC8K3OZPN8gniM7V",
            "pop": 451000,
            "lastUpdated": "2021-04-10T14:23:04.812Z",
            "vaccinated": 0,
            "latitude": 37.2,
            "longitude": -8.16667,
            "infected": 20981,
            "name": "Algarve",
            "country": "PT",
            "sick": 20627,
            "invisible": false
        },
        {
            "dead": 0,
            "country": "GB",
            "name": "East Midlands",
            "id": "INyu1R48Ppv8cfW4Nuz4",
            "lastUpdated": "2021-04-10T14:23:06.701Z",
            "latitude": 52.87,
            "infected": 324795,
            "vaccinated": 0,
            "pop": 4811000,
            "longitude": -0.995,
            "recovered": 0,
            "state": "EN",
            "sick": 324795,
            "invisible": false
        },
        {
            "country": "MX",
            "name": "Aguascalientes",
            "recovered": 0,
            "latitude": 22.017,
            "pop": 1342600,
            "longitude": -102.317,
            "id": "ISRKMzEDojyrZ9iyWwex",
            "dead": 2142,
            "vaccinated": 0,
            "lastUpdated": "2021-04-10T14:23:05.235Z",
            "infected": 25216,
            "sick": 23074,
            "invisible": false
        },
        {
            "lastUpdated": "2021-04-10T14:23:05.235Z",
            "latitude": 25.686613,
            "vaccinated": 0,
            "longitude": -100.316116,
            "id": "IdKbgzgKLpjBFh4UPOwu",
            "recovered": 0,
            "dead": 8624,
            "pop": 5321300,
            "infected": 172615,
            "name": "Nuevo León",
            "country": "MX",
            "sick": 163991,
            "invisible": false
        },
        {
            "id": "IhhiYI6T0TX4CYVPcnmH",
            "country": "MX",
            "latitude": 28.632996,
            "pop": 3826900,
            "longitude": -106.069099,
            "infected": 59915,
            "recovered": 0,
            "vaccinated": 0,
            "lastUpdated": "2021-04-10T14:23:05.232Z",
            "dead": 5082,
            "name": "Chihuahua",
            "sick": 54833,
            "invisible": false
        },
        {
            "dead": 424,
            "latitude": -36.7,
            "country": "CL",
            "vaccinated": 0,
            "id": "ImnOiVx9Cb8Nw7cbRcQ7",
            "longitude": -72.57,
            "infected": 22785,
            "lastUpdated": "2021-04-10T14:23:04.829Z",
            "name": "Ñuble",
            "recovered": 0,
            "pop": 480600,
            "sick": 22361,
            "invisible": false
        },
        {
            "infected": 12840,
            "name": "Haiti",
            "recovered": 11447,
            "longitude": -73.0513,
            "lastUpdated": "2021-04-10T14:23:03.464Z",
            "country": "HT",
            "latitude": 19.0558,
            "pop": 10980000,
            "id": "InZ38sIqyK7FN7XAOZoX",
            "vaccinated": 0,
            "dead": 251,
            "sick": 1142,
            "invisible": false
        },
        {
            "id": "IvQkDJkTAsoIqPRAU25n",
            "vaccinated": 3055334,
            "state": "GA",
            "latitude": 32.528564,
            "lastUpdated": "2021-04-10T14:23:05.166Z",
            "country": "US",
            "pop": 10520000,
            "recovered": 0,
            "dead": 19424,
            "infected": 1071130,
            "longitude": -83.280125,
            "name": "Georgia (US)",
            "sick": 1051706,
            "invisible": false
        },
        {
            "name": "New Zealand",
            "infected": 2571,
            "pop": 4794000,
            "longitude": 172.488081,
            "latitude": -42.8285,
            "id": "IvVhpOoGpH6JVkGyUhXN",
            "recovered": 2440,
            "dead": 26,
            "lastUpdated": "2021-04-10T14:23:03.467Z",
            "country": "NZ",
            "vaccinated": 71013,
            "sick": 105,
            "invisible": false
        },
        {
            "latitude": 28.218,
            "pop": 1255000,
            "dead": 56,
            "vaccinated": 0,
            "lastUpdated": "2021-04-10T14:23:04.397Z",
            "name": "Arunachal Pradesh",
            "id": "IwYKiIVY18NGwdGQFGWW",
            "infected": 16875,
            "longitude": 94.7278,
            "country": "IN",
            "recovered": 16789,
            "sick": 30,
            "invisible": false
        },
        {
            "pop": 28870000,
            "infected": 172461,
            "country": "VE",
            "id": "J3mZXlfEnnJx4CDZLvRG",
            "recovered": 155662,
            "dead": 1739,
            "lastUpdated": "2021-04-10T14:23:03.458Z",
            "name": "Venezuela",
            "latitude": 6.4238,
            "longitude": -66.5897,
            "vaccinated": 98000,
            "sick": 15060,
            "invisible": false
        },
        {
            "recovered": 13619,
            "name": "Adygea",
            "pop": 453000,
            "dead": 168,
            "longitude": 40.1754,
            "latitude": 44.8229,
            "id": "JOJVBvOnsLDJPVeYJaI2",
            "lastUpdated": "2021-04-10T14:23:11.614Z",
            "country": "RU",
            "infected": 14209,
            "vaccinated": 0,
            "sick": 422,
            "invisible": false
        },
        {
            "recovered": 36872,
            "pop": 1170000,
            "country": "CY",
            "dead": 268,
            "id": "JQByE4l2OA6sGOqIcWrM",
            "lastUpdated": "2021-04-10T14:23:03.460Z",
            "infected": 50589,
            "latitude": 35.1264,
            "longitude": 33.4299,
            "name": "Cyprus",
            "vaccinated": 114660,
            "sick": 13449,
            "invisible": false
        },
        {
            "longitude": 85.3131,
            "name": "Bihar",
            "recovered": 265048,
            "country": "IN",
            "vaccinated": 0,
            "pop": 99020000,
            "lastUpdated": "2021-04-10T14:23:04.391Z",
            "dead": 1598,
            "latitude": 25.0961,
            "id": "JR7hOGked7CZtIs2nCV5",
            "infected": 276004,
            "sick": 9358,
            "invisible": false
        },
        {
            "id": "JUWE6bG3b5oL7fKQMSvv",
            "infected": 201295,
            "name": "Guatemala",
            "lastUpdated": "2021-04-10T14:23:03.458Z",
            "latitude": 14.628434,
            "vaccinated": 126320,
            "country": "GT",
            "recovered": 183917,
            "pop": 17250000,
            "longitude": -90.522713,
            "dead": 6977,
            "sick": 10401,
            "invisible": false
        },
        {
            "recovered": 58874,
            "longitude": 6.1296,
            "name": "Luxembourg",
            "id": "JcFsHSn2WvZ5LJW42ovG",
            "latitude": 49.8153,
            "infected": 63467,
            "dead": 763,
            "pop": 602005,
            "lastUpdated": "2021-04-10T14:23:03.460Z",
            "country": "LU",
            "vaccinated": 88717,
            "sick": 3830,
            "invisible": false
        },
        {
            "vaccinated": 0,
            "id": "Jp9ePErcc8i1aOozEAMf",
            "country": "MX",
            "latitude": 31.4,
            "dead": 7233,
            "longitude": -115.783,
            "name": "Baja California",
            "pop": 3648100,
            "lastUpdated": "2021-04-10T14:23:05.231Z",
            "infected": 46806,
            "recovered": 0,
            "sick": 39573,
            "invisible": false
        },
        {
            "pop": 7798000,
            "latitude": 8.6195,
            "lastUpdated": "2021-04-10T14:23:03.464Z",
            "recovered": 8985,
            "name": "Togo",
            "vaccinated": 42092,
            "infected": 11814,
            "id": "JrBbirlBKGdWSdcDt7PF",
            "longitude": 0.8248,
            "dead": 116,
            "country": "TG",
            "sick": 2713,
            "invisible": false
        },
        {
            "id": "JzZ8sbqzjutThVjkPKPL",
            "lastUpdated": "2021-04-10T14:23:03.456Z",
            "name": "Bulgaria",
            "country": "BG",
            "recovered": 284869,
            "longitude": 25.4858,
            "infected": 370179,
            "vaccinated": 442439,
            "pop": 7050000,
            "latitude": 42.7339,
            "dead": 14308,
            "sick": 71002,
            "invisible": false
        },
        {
            "infected": 0,
            "recovered": 0,
            "latitude": 40.4168,
            "id": "KAKGjanZvTHdoClfs3KB",
            "longitude": -3.7038,
            "country": "ES",
            "name": "Vaccinations in Spain",
            "vaccinated": 6791079,
            "dead": 0,
            "lastUpdated": "2021-04-10T00:19:59.566Z",
            "invisible": true,
            "sick": 0
        },
        {
            "name": "Świętokrzyskie",
            "dead": 1844,
            "id": "KGrK7gafkeWjmU6sHQd2",
            "pop": 1263000,
            "latitude": 50.823,
            "recovered": 0,
            "country": "PL",
            "vaccinated": 0,
            "infected": 64034,
            "longitude": 20.709,
            "lastUpdated": "2021-04-10T01:18:18.546Z",
            "sick": 62190,
            "invisible": false
        },
        {
            "country": "RU",
            "longitude": 61.9316,
            "dead": 2828,
            "id": "KLBR5QHW6DePaGcFxlqH",
            "name": "Sverdlovsk Oblast",
            "lastUpdated": "2021-04-10T14:23:11.601Z",
            "vaccinated": 0,
            "pop": 4325000,
            "infected": 83830,
            "latitude": 59.0077,
            "recovered": 77285,
            "sick": 3717,
            "invisible": false
        },
        {
            "lastUpdated": "2021-04-10T14:23:05.606Z",
            "infected": 93187,
            "state": "42",
            "name": "Liguria",
            "country": "IT",
            "pop": 1557000,
            "longitude": 8.833,
            "vaccinated": 0,
            "recovered": 81622,
            "dead": 3950,
            "latitude": 44.5,
            "id": "KLXicxFogWnu0dLp4bNK",
            "sick": 7615,
            "invisible": false
        },
        {
            "invisible": true,
            "longitude": 53.3,
            "id": "KOrg6zo4ZtLxfLCVnYjK",
            "lastUpdated": "2021-04-10T00:20:34.225Z",
            "country": "RU",
            "latitude": 56.34,
            "dead": 0,
            "name": "Vaccinations in Russia",
            "recovered": 0,
            "vaccinated": 8146598,
            "state": "",
            "infected": 0,
            "sick": 0
        },
        {
            "infected": 12736,
            "longitude": 47.9608,
            "country": "RU",
            "name": "Mari El Republic",
            "pop": 682000,
            "vaccinated": 0,
            "id": "KUnAVGJH6fLwFetE8A2x",
            "latitude": 56.4385,
            "lastUpdated": "2021-04-10T14:23:11.615Z",
            "recovered": 11918,
            "dead": 218,
            "sick": 600,
            "invisible": false
        },
        {
            "vaccinated": 0,
            "pop": 3737000,
            "id": "KrLrJbpDqqiXgUPGCCW9",
            "longitude": 11,
            "state": "52",
            "name": "Toscana",
            "infected": 206809,
            "lastUpdated": "2021-04-10T14:23:05.608Z",
            "country": "IT",
            "latitude": 43.4167,
            "dead": 5604,
            "recovered": 173045,
            "sick": 28160,
            "invisible": false
        },
        {
            "name": "Vaccinations in Australia",
            "invisible": true,
            "vaccinated": 996145,
            "recovered": 0,
            "longitude": 133.7751,
            "infected": 0,
            "latitude": -25.2744,
            "id": "Krjcvoad3xZIB6lDI65r",
            "dead": 0,
            "country": "AU",
            "lastUpdated": "2021-04-10T00:19:31.809Z",
            "sick": 0
        },
        {
            "latitude": 7.873054,
            "vaccinated": 924687,
            "recovered": 91456,
            "country": "LK",
            "infected": 94724,
            "pop": 21440000,
            "lastUpdated": "2021-04-10T14:23:03.459Z",
            "dead": 595,
            "id": "KsWzJO06cf0d6LJ4ZNh9",
            "name": "Sri Lanka",
            "longitude": 80.771797,
            "sick": 2673,
            "invisible": false
        },
        {
            "latitude": 15.9129,
            "lastUpdated": "2021-04-10T14:23:04.390Z",
            "recovered": 895949,
            "name": "Andhra Pradesh",
            "infected": 921906,
            "longitude": 79.74,
            "dead": 7291,
            "vaccinated": 0,
            "id": "KtQIo2DoqjELtPAlyDVO",
            "pop": 49670000,
            "country": "IN",
            "sick": 18666,
            "invisible": false
        },
        {
            "latitude": 18.0708,
            "longitude": -63.0501,
            "recovered": 1399,
            "id": "LBUtrLDKJiupXjlUNTUe",
            "dead": 12,
            "name": "Saint-Martin",
            "alwaysShow": true,
            "infected": 1693,
            "country": "FR",
            "lastUpdated": "2021-04-10T14:23:03.467Z",
            "pop": 32125,
            "vaccinated": 0,
            "sick": 282,
            "invisible": false
        },
        {
            "name": "Oryol Oblast",
            "recovered": 30445,
            "longitude": 36.9242,
            "infected": 33039,
            "pop": 747000,
            "dead": 517,
            "lastUpdated": "2021-04-10T14:23:11.608Z",
            "country": "RU",
            "vaccinated": 0,
            "id": "LD8TNScpLrLRvgpQAn9T",
            "latitude": 52.7856,
            "sick": 2077,
            "invisible": false
        },
        {
            "lastUpdated": "2021-04-10T14:23:03.467Z",
            "latitude": 47.166,
            "name": "Liechtenstein",
            "vaccinated": 6503,
            "longitude": 9.5554,
            "dead": 56,
            "country": "LI",
            "pop": 38557,
            "infected": 2738,
            "id": "LTGEU2E9MFkrCcFhZYVk",
            "recovered": 2606,
            "sick": 76,
            "invisible": false
        },
        {
            "recovered": 18473,
            "country": "GN",
            "vaccinated": 67863,
            "name": "Guinea",
            "id": "LU2QWt5ao8IJa8evNYVV",
            "latitude": 9.9456,
            "lastUpdated": "2021-04-10T14:23:03.462Z",
            "infected": 20807,
            "longitude": -9.6966,
            "pop": 12720000,
            "dead": 133,
            "sick": 2201,
            "invisible": false
        },
        {
            "pop": 3062000,
            "latitude": 29.6667,
            "dead": 5855,
            "vaccinated": 0,
            "country": "MX",
            "infected": 71262,
            "lastUpdated": "2021-04-10T14:23:05.233Z",
            "id": "LYCBHrA9ms6GcxpLGPCT",
            "name": "Sonora",
            "recovered": 0,
            "longitude": -110.5,
            "sick": 65407,
            "invisible": false
        },
        {
            "pop": 563402,
            "vaccinated": 30037,
            "dead": 178,
            "infected": 9265,
            "lastUpdated": "2021-04-10T14:23:03.465Z",
            "longitude": -56.0277824,
            "recovered": 8647,
            "latitude": 3.9193051,
            "id": "LglKINHyQpYpFxjckbQ6",
            "country": "SR",
            "name": "Suriname",
            "sick": 440,
            "invisible": false
        },
        {
            "latitude": 52.9399,
            "state": "SK",
            "longitude": -106.4509,
            "lastUpdated": "2021-04-10T14:23:06.043Z",
            "vaccinated": 0,
            "dead": 453,
            "pop": 1174000,
            "name": "Saskatchewan",
            "id": "LkIDKY0CMAqzbwBHyYCP",
            "recovered": 35295,
            "infected": 35748,
            "country": "CA",
            "sick": 0,
            "invisible": false
        },
        {
            "country": "EH",
            "lastUpdated": "2021-04-10T14:23:03.469Z",
            "latitude": 24.2155,
            "longitude": -12.8858,
            "vaccinated": 0,
            "id": "LooNn6RuMiDhQnwa9svw",
            "name": "Western Sahara",
            "pop": 636442,
            "recovered": 8,
            "dead": 1,
            "infected": 10,
            "sick": 1,
            "invisible": false
        },